[{
  "_id": {
    "$oid": "52cdef7c4bab8bd675298447"
  },
  "name": "99designs",
  "category_code": "design",
  "number_of_employees": 100,
  "offices": [
    {
      "description": "United States (HQ)",
      "address1": "447 Battery St.",
      "address2": "3rd Floor",
      "zip_code": "94111",
      "city": "San Francisco",
      "state_code": "CA",
      "country_code": "USA",
      "latitude": 37.7955307,
      "longitude": -122.4005983
    }
  ]
},{
  "_id": {
    "$oid": "52cdef7e4bab8bd67529bb8d"
  },
  "name": "ContinuumGlobal",
  "category_code": "other",
  "number_of_employees": 100,
  "offices": [
    {
      "description": "ContinuumGlobal, Inc.",
      "address1": "431 Bryant Street",
      "address2": "",
      "zip_code": "94107",
      "city": "San Francisco",
      "state_code": "CA",
      "country_code": "USA",
      "latitude": 37.7824672,
      "longitude": -122.3942549
    }
  ]
},{
  "_id": {
    "$oid": "52cdef7c4bab8bd675297f1a"
  },
  "name": "Greystripe",
  "category_code": "advertising",
  "number_of_employees": 90,
  "offices": [
    {
      "description": "Greystripe",
      "address1": "160 Spear Street Fl 14",
      "address2": "",
      "zip_code": "94105",
      "city": "San Francisco",
      "state_code": "CA",
      "country_code": "USA",
      "latitude": 37.710677,
      "longitude": -122.39323
    }
  ]
},{
  "_id": {
    "$oid": "52cdef7c4bab8bd6752984d1"
  },
  "name": "Clickpass",
  "category_code": "web",
  "number_of_employees": 90,
  "offices": [
    {
      "description": null,
      "address1": "",
      "address2": "",
      "zip_code": "",
      "city": "San Francisco",
      "state_code": "CA",
      "country_code": "USA",
      "latitude": 37.775196,
      "longitude": -122.419204
    }
  ]
},{
  "_id": {
    "$oid": "52cdef7c4bab8bd6752987f1"
  },
  "name": "GitHub",
  "category_code": "software",
  "number_of_employees": 106,
  "offices": [
    {
      "description": "",
      "address1": "275 Brannan St.",
      "address2": "",
      "zip_code": "94107",
      "city": "San Francisco",
      "state_code": "CA",
      "country_code": "USA",
      "latitude": 37.775196,
      "longitude": -122.419204
    }
  ]
},{
  "_id": {
    "$oid": "52cdef7d4bab8bd675298bf9"
  },
  "name": "Cloudmark",
  "category_code": "security",
  "number_of_employees": 100,
  "offices": [
    {
      "description": "",
      "address1": "128 King Street",
      "address2": "Second Floor",
      "zip_code": "94107",
      "city": "San Francisco",
      "state_code": "CA",
      "country_code": "USA",
      "latitude": 37.779507,
      "longitude": -122.39071
    }
  ]
},{
  "_id": {
    "$oid": "52cdef7c4bab8bd675297e40"
  },
  "name": "PowerReviews",
  "category_code": "social",
  "number_of_employees": 120,
  "offices": [
    {
      "description": "US Office",
      "address1": "22 4th Street",
      "address2": "6th Floor",
      "zip_code": "94103",
      "city": "San Francisco",
      "state_code": "CA",
      "country_code": "USA",
      "latitude": 37.779558,
      "longitude": -122.393041
    }
  ]
},{
  "_id": {
    "$oid": "52cdef7d4bab8bd675298bbe"
  },
  "name": "iWin",
  "category_code": "games_video",
  "number_of_employees": 103,
  "offices": [
    {
      "description": "",
      "address1": "45 Fremont Street",
      "address2": "Suite 3100",
      "zip_code": "94105",
      "city": "San Francisco",
      "state_code": "CA",
      "country_code": "USA",
      "latitude": 37.781689,
      "longitude": -122.391061
    }
  ]
},{
  "_id": {
    "$oid": "52cdef7f4bab8bd67529c18d"
  },
  "name": "ZoomSystems",
  "category_code": "hardware",
  "number_of_employees": 100,
  "offices": [
    {
      "description": "Corporate Headquarters",
      "address1": "22 4th Street, Floor 16",
      "address2": "",
      "zip_code": "94103",
      "city": "San Francisco",
      "state_code": "CA",
      "country_code": "USA",
      "latitude": 37.781689,
      "longitude": -122.391061
    }
  ]
},{
  "_id": {
    "$oid": "52cdef7c4bab8bd67529845b"
  },
  "name": "LiveRail",
  "category_code": "advertising",
  "number_of_employees": 110,
  "offices": [
    {
      "description": "Headquarters",
      "address1": "575 Market St.",
      "address2": "17th Floor",
      "zip_code": "94105",
      "city": "San Francisco",
      "state_code": "CA",
      "country_code": "USA",
      "latitude": 37.787183,
      "longitude": -122.397759
    }
  ]
},{
  "_id": {
    "$oid": "52cdef7c4bab8bd675297e58"
  },
  "name": "eBuddy",
  "category_code": "messaging",
  "number_of_employees": 90,
  "offices": [
    {
      "description": "US Headquarters",
      "address1": "555 Post St.",
      "address2": "",
      "zip_code": "94102",
      "city": "San Francisco",
      "state_code": "CA",
      "country_code": "USA",
      "latitude": 37.787683,
      "longitude": -122.410943
    }
  ]
},{
  "_id": {
    "$oid": "52cdef7c4bab8bd675297e44"
  },
  "name": "hi5",
  "category_code": "games_video",
  "number_of_employees": 100,
  "offices": [
    {
      "description": "",
      "address1": "55 Second Street",
      "address2": "Suite 400",
      "zip_code": "94105",
      "city": "San Francisco",
      "state_code": "CA",
      "country_code": "USA",
      "latitude": 37.788668,
      "longitude": -122.400558
    }
  ]
},{
  "_id": {
    "$oid": "52cdef7d4bab8bd6752990cc"
  },
  "name": "GoGrid",
  "category_code": "network_hosting",
  "number_of_employees": 102,
  "offices": [
    {
      "description": "Corporate Office",
      "address1": "2 Harrison Street",
      "address2": "2nd Floor",
      "zip_code": "94105",
      "city": "San Francisco",
      "state_code": "CA",
      "country_code": "USA",
      "latitude": 37.7895248,
      "longitude": -122.3886569
    }
  ]
},{
  "_id": {
    "$oid": "52cdef7c4bab8bd6752987e0"
  },
  "name": "ServePath",
  "category_code": "hardware",
  "number_of_employees": 100,
  "offices": [
    {
      "description": null,
      "address1": "345 Spear Street",
      "address2": "Suite 515",
      "zip_code": "94105",
      "city": "San Francisco",
      "state_code": "CA",
      "country_code": "USA",
      "latitude": 37.789803,
      "longitude": -122.389757
    }
  ]
},{
  "_id": {
    "$oid": "52cdef7e4bab8bd67529a3ca"
  },
  "name": "Twilio",
  "category_code": "enterprise",
  "number_of_employees": 100,
  "offices": [
    {
      "description": "Twilio Offices",
      "address1": "645 Harrison, 3rd Floor",
      "address2": "",
      "zip_code": "94107",
      "city": "San Francisco",
      "state_code": "CA",
      "country_code": "USA",
      "latitude": 37.7898499,
      "longitude": -122.4006831
    }
  ]
},{
  "_id": {
    "$oid": "52cdef7d4bab8bd67529891a"
  },
  "name": "Tealeaf",
  "category_code": "advertising",
  "number_of_employees": 100,
  "offices": [
    {
      "description": null,
      "address1": "45 Fremont St.",
      "address2": "Suite 1450",
      "zip_code": "94105",
      "city": "San Francisco",
      "state_code": "CA",
      "country_code": "USA",
      "latitude": 37.791242,
      "longitude": -122.397133
    }
  ]
},{
  "_id": {
    "$oid": "52cdef7e4bab8bd67529bb44"
  },
  "name": "Canopy Financial",
  "category_code": "finance",
  "number_of_employees": 100,
  "offices": [
    {
      "description": "HQ",
      "address1": "201 Spear St.",
      "address2": "Suite 1600",
      "zip_code": "94105",
      "city": "San Francisco",
      "state_code": "CA",
      "country_code": "USA",
      "latitude": 37.791388,
      "longitude": -122.392148
    }
  ]
},{
  "_id": {
    "$oid": "52cdef7d4bab8bd6752992f0"
  },
  "name": "Minted",
  "category_code": "ecommerce",
  "number_of_employees": 115,
  "offices": [
    {
      "description": "",
      "address1": "747 Front Street",
      "address2": "2nd Floor",
      "zip_code": "94111",
      "city": "San Francisco",
      "state_code": "CA",
      "country_code": "USA",
      "latitude": 37.797435,
      "longitude": -122.403175
    }
  ]
}]